,City,Cloudiness,Country,Date,Humidity,Lat,Lng,Max Temp,Wind Speed
0,Vestmannaeyjar,100,IS,2019-10-09,81,63.44,-20.27,9.04,3.03
1,New Norfolk,75,AU,2019-10-09,58,-42.78,147.06,13.33,6.2
2,Dikson,94,RU,2019-10-09,86,73.51,80.55,-5.72,6.09
3,Saskylakh,89,RU,2019-10-09,95,71.97,114.09,-7.98,2.425
4,Sorland,20,NO,2019-10-09,69,67.67,12.69,3.0,3.6
5,Busselton,100,AU,2019-10-09,32,-33.64,115.35,26.11,4.12
6,Hermanus,100,ZA,2019-10-09,83,-34.42,19.24,13.33,4.02
7,Neuquen,0,AR,2019-10-09,39,-38.95,-68.06,16.0,3.6
8,Cape Town,75,ZA,2019-10-09,76,-33.93,18.42,14.44,5.1
9,Bacolod,4,PH,2019-10-09,68,10.68,122.95,29.7,1.68
10,Rikitea,100,PF,2019-10-09,82,-23.12,-134.97,19.64,5.763
11,Punta Arenas,75,CL,2019-10-09,75,-53.16,-70.91,6.0,4.6
12,Weligama,99,LK,2019-10-09,82,5.97,80.42,26.92,2.248
13,Alugan,100,PH,2019-10-09,85,12.22,125.48,28.5,1.59
14,Jamestown,71,AU,2019-10-09,25,-33.21,138.6,20.5,0.99
15,Ushuaia,75,AR,2019-10-09,80,-54.81,-68.31,4.0,10.8
16,Port Alfred,15,ZA,2019-10-09,90,-33.59,26.89,16.11,1.34
17,Aklavik,75,CA,2019-10-09,69,68.22,-135.01,1.0,1.5
18,Port Blair,32,IN,2019-10-09,67,11.67,92.75,28.65,1.652
19,Kachug,81,RU,2019-10-09,54,53.96,105.89,-0.46,6.81
20,Hobart,75,AU,2019-10-09,58,-42.88,147.33,13.33,6.2
21,Coquimbo,100,CL,2019-10-09,100,-29.95,-71.34,16.67,1.46
22,Wuchang,0,CN,2019-10-09,43,44.93,127.16,15.11,8.686
23,Cuauhtemoc,0,MX,2019-10-09,69,28.72,-111.63,25.56,2.67
24,Bredasdorp,97,ZA,2019-10-09,71,-34.53,20.04,13.33,4.1
25,Mataura,100,NZ,2019-10-09,98,-46.19,168.86,10.56,1.79
26,Puerto Ayora,9,EC,2019-10-09,94,-0.74,-90.35,18.33,0.45
27,Hithadhoo,89,MV,2019-10-09,71,-0.6,73.08,27.86,2.079
28,Barrow,27,AR,2019-10-09,56,-38.31,-60.23,7.74,2.93
29,Bluff,0,AU,2019-10-09,18,-23.58,149.07,31.59,4.49
30,Mezen,100,RU,2019-10-09,96,65.85,44.24,0.82,8.09
31,Morondava,0,MG,2019-10-09,61,-20.3,44.28,24.15,2.317
32,Sitka,80,US,2019-10-09,63,37.17,-99.65,16.11,10.28
33,Cayenne,52,GF,2019-10-09,94,4.94,-52.33,24.0,2.82
34,Alta Gracia,0,AR,2019-10-09,87,-31.66,-64.43,20.0,2.1
35,Kaitangata,100,NZ,2019-10-09,92,-46.28,169.85,10.0,4.92
36,Oktyabrskiy,0,RU,2019-10-09,93,55.61,37.97,3.0,2.0
37,Hilo,40,US,2019-10-09,65,19.71,-155.08,28.0,1.5
38,Albany,40,US,2019-10-09,87,42.65,-73.75,9.44,1.472
39,Linxia,100,CN,2019-10-09,89,35.6,103.21,6.55,1.458
40,Airai,0,TL,2019-10-09,46,-8.93,125.41,30.51,2.13
41,Adre,100,TD,2019-10-09,69,13.47,22.2,21.95,1.42
42,Baykalsk,100,RU,2019-10-09,80,51.52,104.15,-0.21,1.88
43,Gombong,13,ID,2019-10-09,38,-7.19,109.31,33.87,0.54
44,Bathsheba,40,BB,2019-10-09,69,13.22,-59.52,28.0,8.2
45,Esperance,100,AU,2019-10-09,27,-33.86,121.89,26.0,6.7
46,Thompson,75,CA,2019-10-09,64,55.74,-97.86,3.0,3.1
47,Lukovetskiy,90,RU,2019-10-09,97,64.29,41.92,1.0,5.0
48,Aktau,90,KZ,2019-10-09,87,43.65,51.16,12.0,1.0
49,Sauk Rapids,10,US,2019-10-09,67,45.59,-94.17,16.11,6.54
50,Chokurdakh,0,RU,2019-10-09,89,70.62,147.9,-12.65,0.637
51,Algeciras,0,ES,2019-10-09,88,36.13,-5.45,21.67,1.5
52,Back Mountain,1,US,2019-10-09,87,41.34,-76.0,11.11,1.5
53,Itarema,15,BR,2019-10-09,79,-2.92,-39.92,24.48,5.13
54,East London,75,ZA,2019-10-09,93,-33.02,27.91,16.0,6.2
55,Narsaq,75,GL,2019-10-09,86,60.91,-46.05,3.0,1.0
56,Kitab,0,UZ,2019-10-09,45,39.12,66.88,17.0,4.1
57,Ugoofaaru,83,MV,2019-10-09,74,5.67,73.0,28.21,4.42
58,Victoria,75,BN,2019-10-09,74,5.28,115.24,31.0,2.1
59,Constantine,20,DZ,2019-10-09,100,36.36,6.61,9.0,1.0
60,Upernavik,0,GL,2019-10-09,53,72.79,-56.15,-0.42,3.94
61,Avarua,100,CK,2019-10-09,60,-21.21,-159.78,22.0,3.1
62,Naze,100,NG,2019-10-09,97,5.43,7.07,21.24,0.49
63,Cabedelo,75,BR,2019-10-09,83,-6.97,-34.84,25.0,2.6
64,Saint George,90,GR,2019-10-09,100,39.45,22.34,15.0,3.1
65,Parkersburg,90,US,2019-10-09,72,39.27,-81.55,15.56,1.5
66,Muros,20,ES,2019-10-09,100,42.77,-9.06,15.0,0.893
67,Pangnirtung,100,CA,2019-10-09,90,66.15,-65.72,0.68,0.896
68,Olenino,100,RU,2019-10-09,94,56.21,33.48,2.51,3.736
69,Katsuura,20,JP,2019-10-09,43,33.93,134.5,23.0,7.7
70,Cherskiy,96,RU,2019-10-09,91,68.75,161.3,-7.33,2.424
71,Mahebourg,75,MU,2019-10-09,83,-20.41,57.7,22.78,5.1
72,Port Elizabeth,90,US,2019-10-09,59,39.31,-74.98,17.22,5.1
73,Leningradskiy,100,RU,2019-10-09,79,69.38,178.42,0.82,10.787
74,Unity,100,CA,2019-10-09,75,52.44,-109.15,-2.22,0.89
75,Alofi,75,NU,2019-10-09,65,-19.06,-169.92,26.0,5.1
76,Geraldton,75,CA,2019-10-09,66,49.72,-86.95,12.0,4.1
77,Clyde River,1,CA,2019-10-09,92,70.47,-68.59,-5.0,2.1
78,Talcahuano,100,CL,2019-10-09,47,-36.72,-73.12,15.0,1.0
79,Valentin Gomez Farias,5,MX,2019-10-09,45,24.05,-104.7,17.0,2.6
80,Sao Joao da Barra,99,BR,2019-10-09,86,-21.64,-41.05,23.3,2.47
81,Nikolskoye,90,RU,2019-10-09,93,59.7,30.79,5.0,3.0
82,Qaanaaq,85,GL,2019-10-09,65,77.48,-69.36,-7.07,4.8
83,Namibe,86,AO,2019-10-09,87,-15.19,12.15,18.95,3.43
84,San Carlos de Bariloche,0,AR,2019-10-09,85,-41.13,-71.31,6.0,9.3
85,Samarai,41,PG,2019-10-09,67,-10.62,150.67,27.1,3.66
86,Vaini,75,IN,2019-10-09,94,15.34,74.49,24.0,1.289
87,Atuona,8,PF,2019-10-09,71,-9.8,-139.03,26.41,4.52
88,Klaksvik,100,FO,2019-10-09,93,62.23,-6.59,10.0,5.7
89,Tasiilaq,100,GL,2019-10-09,80,65.61,-37.64,4.0,7.2
90,Yellowknife,90,CA,2019-10-09,86,62.45,-114.38,-1.0,5.1
91,Marrakesh,0,MA,2019-10-09,63,31.63,-7.99,18.0,2.1
92,Port Hardy,5,CA,2019-10-09,75,50.7,-127.42,5.0,3.6
93,Arraial do Cabo,100,BR,2019-10-09,98,-22.97,-42.02,21.62,2.54
94,Mount Gambier,90,AU,2019-10-09,76,-37.83,140.78,13.0,4.6
95,Roald,75,NO,2019-10-09,66,62.58,6.12,9.0,5.1
96,La Ronge,40,CA,2019-10-09,86,55.1,-105.3,-1.0,3.6
97,Rawson,100,AR,2019-10-09,59,-43.3,-65.11,10.47,5.328
98,Xuanhua,51,CN,2019-10-09,31,40.61,115.04,15.92,0.299
99,Imbituba,20,BR,2019-10-09,88,-28.24,-48.67,20.0,1.0
100,Shingu,20,JP,2019-10-09,29,33.72,135.99,24.0,5.1
101,Tiksi,100,RU,2019-10-09,81,71.64,128.87,-3.47,3.79
102,Sao Sebastiao,100,BR,2019-10-09,86,-3.15,-58.36,24.27,0.77
103,Zihuatanejo,100,MX,2019-10-09,77,17.64,-101.55,29.27,2.5
104,Honningsvag,75,NO,2019-10-09,80,70.98,25.97,5.0,8.2
105,Berlevag,75,NO,2019-10-09,86,70.86,29.09,4.0,7.2
106,Kedougou,90,SN,2019-10-09,94,12.56,-12.19,24.0,1.83
107,San Rafael,79,AR,2019-10-09,30,-34.61,-68.33,14.48,1.12
108,Oskarshamn,90,SE,2019-10-09,100,57.26,16.44,9.0,2.6
109,Tuatapere,100,NZ,2019-10-09,98,-46.13,167.69,10.56,1.79
110,Los Llanos de Aridane,75,ES,2019-10-09,64,28.66,-17.92,22.0,5.1
111,Zhigansk,57,RU,2019-10-09,88,66.77,123.37,-6.79,5.7
112,Flin Flon,100,CA,2019-10-09,57,54.77,-101.88,0.92,4.4
113,Torbay,90,CA,2019-10-09,93,47.66,-52.73,11.11,8.7
114,Lebu,96,ET,2019-10-09,95,8.96,38.73,10.1,0.708
115,Port Hedland,0,AU,2019-10-09,19,-20.31,118.58,40.0,4.1
116,Coihaique,20,CL,2019-10-09,99,-45.58,-72.07,8.0,4.1
117,Clarksburg,90,US,2019-10-09,72,39.24,-77.28,16.67,2.1
118,Tiarei,90,PF,2019-10-09,69,-17.53,-149.33,26.0,2.6
119,Sioux Lookout,40,CA,2019-10-09,51,50.1,-91.92,15.0,5.1
120,Ponta do Sol,100,BR,2019-10-09,95,-20.63,-46.0,18.28,0.24
121,Hami,95,CN,2019-10-09,15,42.84,93.51,19.4,3.83
122,Sinnamary,38,GF,2019-10-09,80,5.38,-52.96,27.7,8.31
123,Verkhnevilyuysk,100,RU,2019-10-09,89,63.45,120.31,-3.76,3.09
124,Kapaa,75,US,2019-10-09,94,22.08,-159.32,27.0,4.1
125,Heihe,20,RU,2019-10-09,37,50.24,127.51,13.0,4.0
126,Norman Wells,75,CA,2019-10-09,63,65.28,-126.83,-1.0,2.6
127,Chisec,100,GT,2019-10-09,97,15.81,-90.29,23.23,1.47
128,Salalah,20,OM,2019-10-09,78,17.01,54.1,27.0,0.5
129,Ribeira Grande,1,PT,2019-10-09,70,38.52,-28.7,16.05,3.706
130,Chone,100,EC,2019-10-09,85,-0.7,-80.09,21.65,2.127
131,Mahenge,100,TZ,2019-10-09,78,-8.68,36.72,23.38,1.817
132,Domna,40,RU,2019-10-09,28,51.9,113.16,6.0,8.0
133,Lompoc,90,US,2019-10-09,93,34.64,-120.46,15.56,2.1
134,Derzhavinsk,100,KZ,2019-10-09,46,51.1,66.31,12.92,2.61
135,Tazmalt,0,DZ,2019-10-09,93,36.39,4.4,16.0,3.6
136,Rafai,100,CF,2019-10-09,93,4.95,23.92,19.58,0.74
137,Outlook,95,CA,2019-10-09,78,51.48,-107.04,-2.78,0.45
138,Vostok,0,RU,2019-10-09,53,46.45,135.83,8.51,4.23
139,Paamiut,100,GL,2019-10-09,90,61.99,-49.67,4.28,4.825
140,Yamethin,0,MM,2019-10-09,75,20.43,96.14,26.98,1.93
141,Avera,1,US,2019-10-09,73,33.19,-82.53,24.0,3.1
142,Saldanha,0,PT,2019-10-09,87,41.42,-6.55,13.38,2.356
143,Shimoda,20,JP,2019-10-09,53,34.7,138.93,24.0,9.3
144,Mar del Plata,10,AR,2019-10-09,47,-46.43,-67.52,9.23,10.46
145,Shitanjing,100,CN,2019-10-09,41,39.23,106.34,15.0,0.89
146,Shahr-e Babak,0,IR,2019-10-09,61,30.12,55.12,15.36,1.48
147,Flinders,2,AU,2019-10-09,48,-34.58,150.85,19.44,7.7
148,Pilar,0,AR,2019-10-09,67,-34.46,-58.91,20.0,1.5
149,Georgetown,40,GY,2019-10-09,94,6.8,-58.16,26.0,2.1
150,Bontang,89,ID,2019-10-09,80,0.12,117.47,28.67,1.55
151,Nouakchott,100,MR,2019-10-09,88,18.08,-15.98,26.0,1.5
152,Yaan,100,NG,2019-10-09,93,7.38,8.57,21.96,1.121
153,Castro,90,CL,2019-10-09,93,-42.48,-73.76,8.0,1.5
154,Bow Island,90,CA,2019-10-09,79,49.87,-111.38,-2.0,4.1
155,Salinopolis,91,BR,2019-10-09,77,-0.61,-47.36,27.27,8.196
156,Butaritari,56,KI,2019-10-09,67,3.07,172.79,29.59,5.16
157,Sawtell,0,AU,2019-10-09,56,-30.38,153.1,22.0,9.3
158,Birjand,0,IR,2019-10-09,19,32.86,59.22,19.0,3.1
159,Cumpas,0,MX,2019-10-09,51,30.0,-109.78,21.65,2.01
160,Trogir,0,HR,2019-10-09,71,43.52,16.25,12.0,2.6
161,Waddan,19,LY,2019-10-09,81,29.16,16.14,16.47,0.983
162,Bastia,40,IT,2019-10-09,68,44.6,8.98,19.0,3.6
163,San Quintin,0,PH,2019-10-09,60,17.54,120.52,30.91,1.54
164,Lahaina,75,US,2019-10-09,88,20.87,-156.68,29.0,5.7
165,Kirakira,100,SB,2019-10-09,69,-10.46,161.92,28.34,2.166
166,Nome,1,US,2019-10-09,88,30.04,-94.42,21.67,2.0
167,Rundu,45,NA,2019-10-09,18,-17.91,19.77,23.0,1.5
168,Nanortalik,100,GL,2019-10-09,86,60.14,-45.24,4.52,3.18
169,Kodiak,1,US,2019-10-09,76,39.95,-94.76,16.0,2.6
170,Buraydah,0,SA,2019-10-09,50,26.33,43.97,26.0,2.1
171,Namatanai,19,PG,2019-10-09,77,-3.66,152.44,27.93,4.35
172,Gizo,87,IL,2019-10-09,88,31.8,34.94,21.67,3.14
173,Lavrentiya,100,RU,2019-10-09,99,65.58,-170.99,0.69,0.86
174,Shilovo,100,RU,2019-10-09,74,51.55,39.09,2.0,4.0
175,Umm Lajj,62,SA,2019-10-09,68,25.02,37.27,30.54,4.07
176,Khatanga,71,RU,2019-10-09,89,71.98,102.47,-7.55,1.54
177,Champerico,90,MX,2019-10-09,88,16.38,-93.6,24.0,2.17
178,Yar-Sale,100,RU,2019-10-09,83,66.83,70.83,1.63,5.8
179,Hasaki,20,JP,2019-10-09,46,35.73,140.83,25.0,1.5
180,State College,1,US,2019-10-09,87,40.79,-77.86,10.0,1.86
181,Mut,30,TR,2019-10-09,81,36.64,33.44,14.86,0.928
182,Kavaratti,20,IN,2019-10-09,83,10.57,72.64,29.0,1.33
183,Balyaga,100,RU,2019-10-09,60,51.15,108.93,1.25,5.754
184,Kaseda,20,JP,2019-10-09,40,31.42,130.32,23.0,1.0
185,Margate,75,AU,2019-10-09,58,-43.03,147.26,13.33,6.2
186,Mount Isa,23,AU,2019-10-09,9,-20.73,139.49,33.0,5.1
187,Lagoa,0,PT,2019-10-09,77,37.14,-8.45,20.0,3.1
188,Moose Factory,1,CA,2019-10-09,62,51.26,-80.61,12.0,6.7
189,Lac-Megantic,20,CA,2019-10-09,100,45.58,-70.88,3.33,1.5
190,Ornskoldsvik,75,SE,2019-10-09,94,63.29,18.72,3.0,2.6
191,Kangaatsiaq,23,GL,2019-10-09,53,68.31,-53.46,3.65,3.93
192,Shujalpur,0,IN,2019-10-09,61,23.4,76.72,27.0,1.0
193,Bonthe,100,SL,2019-10-09,92,7.53,-12.5,24.33,3.647
194,Provideniya,90,RU,2019-10-09,80,64.42,-173.23,5.0,2.0
195,Ferme-Neuve,0,CA,2019-10-09,89,46.7,-75.45,4.78,0.78
196,Honiara,75,SB,2019-10-09,74,-9.43,159.96,30.0,1.6
197,Iqaluit,75,CA,2019-10-09,91,63.75,-68.52,2.0,0.85
198,Lesnoy,100,RU,2019-10-09,91,59.78,52.13,0.25,3.01
199,Okhotsk,100,RU,2019-10-09,97,59.36,143.24,0.37,4.4
200,Bethel,40,US,2019-10-09,87,60.79,-161.76,7.0,4.6
201,Ouesso,100,CG,2019-10-09,98,1.61,16.05,20.23,0.63
202,Wiarton,5,CA,2019-10-09,87,44.74,-81.13,8.89,4.1
203,Dwarka,0,IN,2019-10-09,57,28.58,77.04,29.44,3.1
204,Westport,1,US,2019-10-09,76,41.14,-73.36,16.11,5.1
205,Businga,100,CD,2019-10-09,97,3.34,20.89,19.89,1.105
206,Aripuana,88,BR,2019-10-09,94,-9.17,-60.63,21.84,0.888
207,Luderitz,0,NA,2019-10-09,62,-26.65,15.16,15.0,7.7
208,Katherine,23,AU,2019-10-09,15,-14.47,132.26,38.0,8.2
209,Elko,1,US,2019-10-09,37,40.83,-115.76,16.67,1.5
210,Madingou,72,CG,2019-10-09,91,-4.17,13.56,23.23,2.14
211,Chuy,0,UY,2019-10-09,73,-33.69,-53.46,12.73,1.638
212,Herat,0,AF,2019-10-09,21,34.35,62.22,22.0,1.0
213,Ahrensburg,75,DE,2019-10-09,87,53.67,10.24,11.0,7.2
214,Sao Jose da Coroa Grande,19,BR,2019-10-09,95,-8.9,-35.15,21.22,1.71
215,Saint Anthony,1,US,2019-10-09,40,43.97,-111.68,13.0,2.6
216,Tazovskiy,100,RU,2019-10-09,80,67.47,78.7,0.58,6.45
217,Porto Novo,75,BR,2019-10-09,93,-23.68,-45.44,18.0,1.0
218,Tuy Hoa,77,VN,2019-10-09,62,13.08,109.3,29.46,2.84
219,Longyearbyen,75,NO,2019-10-09,87,78.22,15.63,1.0,3.6
220,Evanston,1,US,2019-10-09,71,42.04,-87.69,15.0,1.8
221,Tommot,100,RU,2019-10-09,89,58.97,126.27,-1.97,5.29
222,Pevek,100,RU,2019-10-09,83,69.7,170.27,-1.33,5.69
223,Sao Filipe,18,CV,2019-10-09,84,14.9,-24.5,25.08,6.08
224,Deputatskiy,99,RU,2019-10-09,95,69.3,139.9,-14.83,1.28
225,Waipawa,99,NZ,2019-10-09,60,-39.94,176.59,18.89,1.79
226,Dubbo,0,AU,2019-10-09,22,-32.25,148.6,20.0,3.6
227,San Juan,28,AR,2019-10-09,36,-31.54,-68.53,12.33,1.37
228,Revelstoke,20,CA,2019-10-09,64,50.99,-118.19,3.0,6.2
229,Janauba,58,BR,2019-10-09,77,-1.63,-45.47,25.73,3.71
230,Vilyuysk,99,RU,2019-10-09,88,63.75,121.63,-1.28,3.53
231,Cortez,1,US,2019-10-09,42,37.35,-108.58,8.89,3.1
232,Panama City,1,US,2019-10-09,88,30.16,-85.65,25.56,3.1
233,Storm Lake,1,US,2019-10-09,76,42.64,-95.21,13.89,3.6
234,Kruisfontein,89,ZA,2019-10-09,83,-34.0,24.73,14.52,8.321
235,Gat,20,SN,2019-10-09,83,14.69,-16.54,27.0,1.0
236,Bemidji,1,US,2019-10-09,62,47.48,-94.89,14.0,4.1
237,Ormara,0,PK,2019-10-09,77,25.21,64.64,28.16,5.944
238,Kamina,84,CD,2019-10-09,76,-8.74,25.0,18.16,0.87
239,Ouadda,100,CF,2019-10-09,94,8.07,22.4,18.57,0.324
240,Nyaunglebin,87,MM,2019-10-09,71,17.95,96.73,28.97,1.28
241,Khromtau,97,KZ,2019-10-09,69,50.26,58.44,7.9,1.14
242,Fez,0,MA,2019-10-09,42,34.03,-5.02,17.0,4.1
243,Camacha,40,PT,2019-10-09,88,33.08,-16.33,23.0,4.6
244,Saint-Francois,77,FR,2019-10-09,87,46.42,3.91,13.0,1.5
245,Bambous Virieux,75,MU,2019-10-09,73,-20.34,57.76,23.33,6.2
246,Avila,90,US,2019-10-09,51,38.91,-76.61,18.0,2.1
247,Severo-Kurilsk,100,RU,2019-10-09,97,50.68,156.12,6.07,14.414
248,Saint-Philippe,1,CA,2019-10-09,100,45.36,-73.48,7.78,2.1
249,Hofn,100,IS,2019-10-09,98,64.25,-15.21,2.36,6.3
250,Tuktoyaktuk,40,CA,2019-10-09,86,69.44,-133.03,-2.0,3.6
251,Talnakh,0,RU,2019-10-09,85,69.49,88.39,-5.0,2.0
252,Magadi,20,IN,2019-10-09,73,12.96,77.22,27.22,0.39
253,Loandjili,75,CG,2019-10-09,94,-4.77,11.87,25.0,4.1
254,Mattru,71,SL,2019-10-09,98,7.62,-11.83,22.41,0.63
255,Tupiza,0,BO,2019-10-09,74,-21.44,-65.72,1.22,0.49
256,Tarandacuao,5,MX,2019-10-09,77,20.0,-100.52,18.33,3.6
257,Kathmandu,40,NP,2019-10-09,77,27.71,85.32,21.0,2.1
258,Mandeville,1,US,2019-10-09,83,30.36,-90.07,27.0,1.695
259,Baykit,0,RU,2019-10-09,55,61.68,96.39,-2.95,2.345
260,Ostrovnoy,64,RU,2019-10-09,99,68.05,39.51,0.75,3.69
261,Grindavik,100,IS,2019-10-09,100,63.84,-22.43,7.0,2.1
262,Pisco,90,PE,2019-10-09,82,-13.71,-76.2,17.0,1.5
263,Bujaru,0,BR,2019-10-09,94,-1.52,-48.04,24.0,2.1
264,Sur,0,OM,2019-10-09,63,22.57,59.53,26.12,0.224
265,Belyy Yar,0,RU,2019-10-09,61,53.6,91.39,8.0,3.43
266,Roswell,1,US,2019-10-09,68,33.39,-104.52,21.0,6.7
267,Acari,0,BR,2019-10-09,77,-6.44,-36.64,21.96,11.08
268,Komsomolskiy,100,RU,2019-10-09,91,67.55,63.78,0.71,1.81
269,Valparaiso,1,US,2019-10-09,81,41.47,-87.06,15.0,2.89
270,Ryotsu,40,JP,2019-10-09,40,38.08,138.43,21.0,4.6
271,Tsabong,0,BW,2019-10-09,21,-26.02,22.4,16.08,3.67
272,Churapcha,100,RU,2019-10-09,92,62.0,132.43,-1.2,4.41
273,Piacabucu,45,BR,2019-10-09,80,-10.41,-36.43,24.18,5.08
274,Bonavista,41,CA,2019-10-09,85,48.65,-53.11,10.0,6.71
275,Zhigalovo,100,RU,2019-10-09,65,54.81,105.15,-2.11,4.462
276,Abu Kamal,76,SY,2019-10-09,31,34.45,40.92,23.83,3.35
277,Lebowakgomo,0,ZA,2019-10-09,28,-24.3,29.54,17.0,1.5
278,Sindor,100,RU,2019-10-09,80,62.87,51.9,0.35,5.17
279,Guerrero Negro,65,MX,2019-10-09,80,27.97,-114.04,20.67,6.67
280,Carnarvon,0,ZA,2019-10-09,42,-30.97,22.13,11.15,3.72
281,Aginskoye,93,RU,2019-10-09,41,51.11,114.54,6.76,10.776
282,Mujiayingzi,94,CN,2019-10-09,22,42.12,118.78,18.53,7.793
283,San Vicente,90,EC,2019-10-09,83,-0.59,-80.41,22.0,5.136
284,Aykhal,90,RU,2019-10-09,92,65.95,111.51,-8.0,3.0
285,Miguel Hidalgo,75,MX,2019-10-09,67,19.41,-99.19,16.0,3.1
286,Catuday,0,PH,2019-10-09,70,16.29,119.81,28.47,1.79
287,Vredendal,100,ZA,2019-10-09,77,-31.68,18.49,15.13,8.659
288,Worcester,0,GB,2019-10-09,87,52.19,-2.22,10.56,2.6
289,Kavieng,4,PG,2019-10-09,71,-2.57,150.8,29.57,4.677
290,Acapulco,75,MX,2019-10-09,88,16.86,-99.88,27.0,2.1
291,Evensk,100,RU,2019-10-09,33,61.92,159.24,-2.02,1.31
292,Chirongui,20,YT,2019-10-09,83,-12.93,45.15,26.0,2.6
293,Hornepayne,0,CA,2019-10-09,72,49.22,-84.78,11.27,6.32
294,Kyzyl-Suu,100,KG,2019-10-09,66,42.34,78.0,11.25,2.425
295,Macas,27,EC,2019-10-09,94,-2.3,-78.12,7.03,1.7
296,Bara,70,NG,2019-10-09,97,10.41,10.6,21.4,1.36
297,Saint-Joseph,75,FR,2019-10-09,82,43.56,6.97,15.0,1.5
298,Necochea,73,AR,2019-10-09,93,-38.55,-58.74,6.11,0.89
299,Marystown,100,CA,2019-10-09,91,47.17,-55.16,8.92,4.83
300,Cabo San Lucas,5,MX,2019-10-09,65,22.89,-109.91,29.44,2.781
301,Lethem,100,GY,2019-10-09,69,3.38,-59.8,27.7,1.217
302,Denpasar,20,ID,2019-10-09,70,-8.65,115.22,30.0,4.6
303,Sao Gabriel da Cachoeira,55,BR,2019-10-09,92,-0.13,-67.09,23.93,0.79
304,Husavik,100,CA,2019-10-09,83,50.56,-96.99,11.67,2.68
305,Wajid,51,SO,2019-10-09,75,3.81,43.25,24.89,3.94
306,Olga,1,US,2019-10-09,77,34.11,-118.17,19.44,1.5
307,Hirado,40,JP,2019-10-09,54,33.32,129.49,26.0,5.1
308,College,90,US,2019-10-09,93,64.86,-147.8,3.0,1.5
309,Chulman,98,RU,2019-10-09,84,56.84,124.9,-4.8,3.978
310,Beni,100,CD,2019-10-09,99,0.49,29.47,18.08,0.312
311,Codrington,90,AU,2019-10-09,35,-28.95,153.24,23.0,6.2
312,Meulaboh,83,ID,2019-10-09,79,4.14,96.13,26.27,1.691
313,Ossora,74,RU,2019-10-09,39,59.24,163.07,4.42,1.43
314,Tura,59,RU,2019-10-09,75,64.27,100.22,-7.3,6.82
315,Huarmey,77,PE,2019-10-09,75,-10.07,-78.15,16.13,0.561
316,Juneau,75,US,2019-10-09,52,58.3,-134.42,5.0,3.6
317,Svolvaer,0,NO,2019-10-09,60,68.23,14.57,4.0,11.3
318,Mareeba,75,AU,2019-10-09,58,-16.99,145.42,34.44,3.6
319,Chumphon,20,TH,2019-10-09,70,10.5,99.18,32.0,2.1
320,Jaynagar-Majilpur,90,IN,2019-10-09,94,22.18,88.42,23.0,2.6
321,Paka,100,CF,2019-10-09,99,4.15,15.03,19.71,0.42
322,Shishou,93,CN,2019-10-09,67,29.72,112.42,20.28,1.766
323,Mawlaik,0,MM,2019-10-09,68,23.63,94.42,26.15,1.33
324,Cheyenne,1,US,2019-10-09,25,41.14,-104.82,12.22,1.5
325,Yenagoa,53,NG,2019-10-09,96,4.92,6.26,22.06,0.39
326,Qasigiannguit,19,GL,2019-10-09,53,68.82,-51.19,-3.0,0.5
327,Newport,100,GB,2019-10-09,93,51.59,-3.0,11.67,3.6
328,Tilichiki,5,RU,2019-10-09,63,60.47,166.1,2.1,1.18
329,Den Chai,20,TH,2019-10-09,66,17.98,100.06,33.0,0.5
330,Vostochnyy,90,RU,2019-10-09,93,55.82,37.87,3.0,4.0
331,Iranshahr,0,IR,2019-10-09,54,27.21,60.69,28.0,0.626
332,Ashland,90,US,2019-10-09,87,38.48,-82.64,16.67,1.5
333,Amapa,40,HN,2019-10-09,94,15.09,-87.97,27.0,2.6
334,Karratha,2,AU,2019-10-09,54,-20.74,116.85,28.05,1.914
335,Zaraza,100,VE,2019-10-09,95,9.35,-65.33,23.45,1.37
336,Puerto del Rosario,20,ES,2019-10-09,77,28.5,-13.86,21.0,4.6
337,Medea,0,DZ,2019-10-09,93,36.27,2.77,14.0,1.903
338,Bozeman,90,US,2019-10-09,69,45.68,-111.04,2.0,4.1
339,Cairns,100,AU,2019-10-09,58,-16.92,145.77,34.44,3.6
340,Balkhash,0,KZ,2019-10-09,41,46.84,74.98,14.0,5.0
341,Ginir,79,ET,2019-10-09,88,7.14,40.71,14.09,1.85
342,Chinsali,28,ZM,2019-10-09,53,-10.55,32.07,16.92,1.002
343,Emerald,0,AU,2019-10-09,12,-23.53,148.16,31.67,5.7
344,Ucluelet,0,CA,2019-10-09,84,48.94,-125.55,7.78,6.73
345,Pacifica,20,US,2019-10-09,72,37.61,-122.49,17.22,6.2
346,Reyes,0,BO,2019-10-09,82,-14.3,-67.34,21.18,0.78
347,Jamnagar,0,IN,2019-10-09,59,22.47,70.06,29.56,4.379
348,Lata,10,IN,2019-10-09,73,30.78,78.62,2.31,2.02
349,Atar,100,MR,2019-10-09,13,20.52,-13.05,32.14,3.3
350,Road Town,47,VG,2019-10-09,69,18.42,-64.62,28.89,7.81
351,Brownsburg,1,US,2019-10-09,71,39.84,-86.4,13.89,1.5
352,Tautira,90,PF,2019-10-09,69,-17.73,-149.15,26.0,2.6
353,Bogorodskoye,100,RU,2019-10-09,86,52.37,140.44,7.52,3.346
354,Ancud,90,CL,2019-10-09,93,-41.87,-73.83,8.0,2.1
355,Fortuna,0,ES,2019-10-09,88,38.18,-1.13,19.44,1.0
356,Yarensk,100,RU,2019-10-09,89,62.17,49.09,0.08,5.85
357,Nortelandia,100,BR,2019-10-09,91,-14.45,-56.8,22.18,1.637
358,Gao,0,ML,2019-10-09,34,16.28,-0.04,32.45,6.133
359,Alice Springs,0,AU,2019-10-09,14,-23.7,133.88,25.0,5.7
360,Nogliki,100,RU,2019-10-09,96,51.8,143.14,8.28,6.58
361,Cidreira,0,BR,2019-10-09,87,-30.17,-50.22,18.59,3.376
362,Majdanpek,9,RS,2019-10-09,63,44.42,21.94,12.22,1.79
363,Nuuk,1,GL,2019-10-09,69,64.17,-51.74,2.0,1.0
364,Say,20,NE,2019-10-09,78,13.1,2.36,26.0,0.5
365,Bandarbeyla,72,SO,2019-10-09,87,9.49,50.81,25.95,5.269
366,Chambersburg,1,US,2019-10-09,76,39.94,-77.66,14.0,3.02
367,Kiunga,100,PG,2019-10-09,62,-6.12,141.3,30.31,1.33
368,Lorengau,86,PG,2019-10-09,69,-2.02,147.27,29.26,3.39
369,Mitsamiouli,40,KM,2019-10-09,65,-11.38,43.28,28.0,6.7
370,Thinadhoo,62,MV,2019-10-09,68,0.53,72.93,27.67,2.76
371,Sinop,90,TR,2019-10-09,76,42.03,35.15,14.0,3.1
372,Changji,26,CN,2019-10-09,54,32.07,116.17,22.44,4.66
373,Cap-aux-Meules,33,CA,2019-10-09,74,47.38,-61.86,10.0,7.72
374,Sechura,30,PE,2019-10-09,88,-5.56,-80.82,16.42,4.3
375,Leh,5,IN,2019-10-09,45,34.16,77.58,0.04,2.276
376,Marfino,90,RU,2019-10-09,93,56.07,37.56,3.0,4.0
377,Bilma,33,NE,2019-10-09,40,18.69,12.92,28.92,4.53
378,Rabo de Peixe,20,PT,2019-10-09,55,37.8,-25.58,21.67,3.1
379,Turukhansk,92,RU,2019-10-09,80,65.8,87.96,-0.42,1.46
380,Lask,75,PL,2019-10-09,100,51.59,19.13,10.56,3.6
381,Nazilli,0,TR,2019-10-09,89,37.91,28.32,13.78,0.64
382,Kalmunai,83,LK,2019-10-09,74,7.42,81.82,27.96,0.66
383,Marzuq,81,YE,2019-10-09,46,14.4,46.47,21.14,1.45
384,Nishihara,75,JP,2019-10-09,33,35.74,139.53,26.67,5.1
385,Faanui,81,PF,2019-10-09,85,-16.48,-151.75,24.81,10.83
386,Terra Santa,100,BR,2019-10-09,84,-2.1,-56.49,24.82,0.51
387,Pangai,20,TO,2019-10-09,69,-19.8,-174.35,27.0,5.1
388,Kindu,100,CD,2019-10-09,99,-2.95,25.92,20.29,1.09
389,Shiyan,96,CN,2019-10-09,85,32.65,110.78,13.15,1.85
390,Frutal,99,BR,2019-10-09,82,-20.02,-48.93,21.36,2.48
391,Rondonopolis,99,BR,2019-10-09,74,-16.46,-54.64,24.49,0.2
392,Chifeng,70,CN,2019-10-09,31,42.27,118.96,15.1,7.68
393,Ayagoz,3,KZ,2019-10-09,40,47.96,80.43,13.26,4.099
394,Santa Cruz de la Palma,75,ES,2019-10-09,64,28.68,-17.76,22.0,5.1
395,Tiruttani,20,IN,2019-10-09,78,13.18,79.61,31.0,5.1
396,Makakilo City,75,US,2019-10-09,65,21.35,-158.09,28.0,2.1
397,Oum Hadjer,100,TD,2019-10-09,61,13.3,19.7,25.06,5.33
398,Isangel,75,VU,2019-10-09,61,-19.55,169.27,28.0,1.5
399,Ekhabi,100,RU,2019-10-09,96,53.51,142.97,8.62,5.21
400,Port Arthur,20,US,2019-10-09,88,29.9,-93.93,21.0,2.18
401,Roebourne,0,AU,2019-10-09,8,-20.77,117.15,39.97,0.61
402,Matay,64,EG,2019-10-09,35,28.42,30.79,24.33,5.358
403,Inhambane,75,MZ,2019-10-09,94,-23.87,35.38,25.0,1.28
404,Altay,0,CN,2019-10-09,23,47.83,88.13,11.09,0.56
405,Henties Bay,33,NA,2019-10-09,87,-22.12,14.28,14.2,5.9
406,Sobolevo,92,RU,2019-10-09,91,54.43,31.9,3.23,6.0
407,Saint-Augustin,5,CA,2019-10-09,93,45.63,-73.98,7.78,1.56
408,Port Lincoln,100,AU,2019-10-09,60,-34.72,135.86,13.28,4.376
409,Paulo Afonso,4,BR,2019-10-09,90,-9.4,-38.23,19.14,5.46
410,Moscow,100,RU,2019-10-09,100,55.75,37.62,3.0,3.0
411,Toppenish,75,US,2019-10-09,49,46.38,-120.31,8.0,4.6
412,Ola,100,RU,2019-10-09,81,59.58,151.3,2.8,8.94
413,Maningrida,21,AU,2019-10-09,41,-12.05,134.23,32.7,5.99
414,Dawei,35,MM,2019-10-09,75,14.07,98.19,27.01,1.95
415,Bajil,0,ES,2019-10-09,95,38.23,-2.07,12.22,0.45
416,Nara,0,JP,2019-10-09,31,34.68,135.8,24.0,3.6
417,Casablanca,75,MA,2019-10-09,100,33.6,-7.62,12.0,0.215
418,Orange Cove,1,US,2019-10-09,59,36.62,-119.31,23.33,2.09
419,Aguachica,100,CO,2019-10-09,98,8.31,-73.6,23.41,1.05
420,Karatau,0,KZ,2019-10-09,96,43.18,70.46,10.0,1.23
421,Xichang,61,CN,2019-10-09,76,27.88,102.25,15.83,2.44
422,Begunitsy,90,RU,2019-10-09,93,59.58,29.3,4.44,3.0
423,Zhangye,100,CN,2019-10-09,42,38.94,100.46,13.83,2.618
424,Sesimbra,20,PT,2019-10-09,77,38.45,-9.1,17.22,5.7
425,Pravia,75,ES,2019-10-09,82,43.49,-6.11,14.0,3.6
426,Touros,40,BR,2019-10-09,83,-5.2,-35.46,24.0,2.6
427,Bubaque,100,GW,2019-10-09,73,11.28,-15.83,26.84,2.77
428,Sfantu Gheorghe,0,RO,2019-10-09,93,44.65,26.83,5.0,0.5
429,Ridgecrest,1,US,2019-10-09,10,35.62,-117.67,27.0,5.1
430,Elbistan,7,TR,2019-10-09,73,38.2,37.19,8.88,0.34
431,Harbin,0,CN,2019-10-09,32,45.77,126.62,19.0,7.0
432,Whitehorse,90,CA,2019-10-09,74,60.72,-135.06,-2.0,2.1
433,Swellendam,100,ZA,2019-10-09,76,-34.02,20.44,12.0,4.1
434,Kandrian,54,PG,2019-10-09,79,-6.21,149.55,28.02,3.622
435,Loa Janan,100,ID,2019-10-09,69,-0.58,117.09,30.11,1.79
436,Haines Junction,100,CA,2019-10-09,50,60.75,-137.51,-4.77,2.52
437,Tortoli,5,IT,2019-10-09,59,39.93,9.66,17.0,2.6
438,Ulaanbaatar,0,MN,2019-10-09,27,47.92,106.92,12.0,3.0
439,Razole,98,IN,2019-10-09,80,16.48,81.84,27.44,2.54
440,Riosucio,40,CO,2019-10-09,100,5.42,-75.7,20.0,1.0
441,Orsha,90,BY,2019-10-09,86,54.51,30.43,4.0,5.0
442,Abha,0,SA,2019-10-09,45,18.22,42.5,17.0,3.1
443,Vanimo,100,PG,2019-10-09,71,-2.67,141.3,28.58,4.0
444,Bar Harbor,1,US,2019-10-09,87,44.39,-68.2,13.33,2.6
445,Basoko,100,CD,2019-10-09,98,1.23,23.61,20.89,0.54
446,Kathu,0,ZA,2019-10-09,34,-27.7,23.05,12.78,2.46
447,Yerbogachen,100,RU,2019-10-09,83,61.28,108.01,-6.01,3.997
448,Zheleznodorozhnyy,0,RU,2019-10-09,96,55.75,38.0,3.0,3.0
449,Madiun,5,ID,2019-10-09,34,-7.63,111.52,34.36,1.1
450,Pliska,20,BG,2019-10-09,93,43.36,27.12,10.56,4.663
451,Catalina,90,PE,2019-10-09,87,-13.57,-76.13,16.0,1.0
452,Port Macquarie,40,AU,2019-10-09,42,-31.43,152.91,21.67,9.3
453,Ambon,75,FR,2019-10-09,93,47.55,-2.56,13.89,2.6
454,Limanowa,75,PL,2019-10-09,100,49.71,20.42,10.0,1.0
455,Ciudad Bolivar,100,VE,2019-10-09,86,8.12,-63.55,25.51,2.74
456,Havre-Saint-Pierre,20,CA,2019-10-09,70,50.23,-63.6,6.0,4.1
457,Portoferraio,0,IT,2019-10-09,87,42.81,10.31,17.22,3.1
458,Kupang,20,ID,2019-10-09,55,-10.16,123.6,31.0,3.87
459,Srednekolymsk,100,RU,2019-10-09,82,67.46,153.71,-7.76,3.08
460,Nantucket,20,US,2019-10-09,72,41.28,-70.1,16.11,5.1
461,Russell,1,US,2019-10-09,59,38.9,-98.86,17.78,8.2
462,Artyom,0,RU,2019-10-09,35,43.36,132.19,16.0,4.0
463,Havre,90,US,2019-10-09,92,48.55,-109.68,-2.0,5.7
464,Arica,90,CL,2019-10-09,67,-18.48,-70.32,16.0,2.1
465,Luwuk,16,ID,2019-10-09,75,-0.95,122.79,26.47,6.875
466,Eaglesham,75,CA,2019-10-09,63,55.78,-117.88,-2.78,1.5
467,Mandalgovi,0,MN,2019-10-09,30,45.76,106.27,11.97,8.282
468,Klyuchi,0,RU,2019-10-09,60,52.25,79.17,11.33,2.69
469,Beringovskiy,53,RU,2019-10-09,67,63.05,179.32,-0.06,3.97
470,Kamaishi,75,JP,2019-10-09,55,39.28,141.86,19.0,3.1
471,Barentu,0,ER,2019-10-09,54,15.11,37.59,23.3,3.112
472,Sturgeon Falls,1,CA,2019-10-09,87,46.36,-79.93,6.11,2.1
473,Kahului,40,US,2019-10-09,61,20.89,-156.47,28.0,5.7
474,San Cristobal,95,HN,2019-10-09,90,14.68,-86.92,20.03,1.888
475,Poopo,0,BO,2019-10-09,40,-18.38,-66.97,7.96,3.91
476,Kitakata,98,JP,2019-10-09,45,37.67,139.86,20.0,0.89
477,Laguna,75,BZ,2019-10-09,93,16.17,-88.94,26.0,0.58
478,Requena,0,ES,2019-10-09,88,39.49,-1.1,19.44,0.5
479,Hecun,24,CN,2019-10-09,61,29.94,119.31,21.44,1.63
480,Souillac,75,FR,2019-10-09,93,45.6,-0.6,15.56,3.1
481,Bria,100,CF,2019-10-09,98,6.54,21.99,19.51,0.53
482,Sompeta,91,IN,2019-10-09,77,18.93,84.6,26.59,1.37
483,Coronel Bogado,0,PY,2019-10-09,52,-27.16,-56.24,20.0,2.6
484,Lufilufi,100,WS,2019-10-09,83,-13.87,-171.6,27.78,4.47
485,Ondjiva,70,AO,2019-10-09,27,-17.07,15.73,18.18,3.087
486,Faya,0,SA,2019-10-09,45,18.39,42.45,17.0,3.1
487,Isla Mujeres,75,MX,2019-10-09,100,21.23,-86.73,25.0,1.88
488,Oistins,20,BB,2019-10-09,69,13.07,-59.53,28.0,7.2
489,Aksay,100,KZ,2019-10-09,71,51.17,53.01,6.11,1.69
490,Luanda,75,AO,2019-10-09,83,-8.83,13.24,24.0,4.1
491,Shemursha,100,RU,2019-10-09,95,54.89,47.52,3.27,4.15
492,Visim,100,RU,2019-10-09,91,57.65,59.5,2.25,0.849
493,Dunedin,100,NZ,2019-10-09,93,-45.87,170.5,8.81,3.483
494,Poum,0,MK,2019-10-09,90,41.28,20.71,6.94,0.837
495,Belaya Gora,91,RU,2019-10-09,72,68.54,146.19,-7.04,1.726
496,Tezu,96,IN,2019-10-09,97,27.93,96.16,21.8,0.86
497,Lensk,86,RU,2019-10-09,73,60.71,114.91,-6.31,2.14
498,Ust-Nera,91,RU,2019-10-09,80,64.57,143.24,-11.26,0.69
499,Buin,0,CL,2019-10-09,28,-33.73,-70.74,21.0,1.0
500,Goderich,0,CA,2019-10-09,87,43.74,-81.71,10.0,8.77
501,Bonfim,64,BR,2019-10-09,64,-20.33,-44.24,23.0,2.6
502,Moreira Sales,100,BR,2019-10-09,65,-24.05,-53.01,20.75,3.33
503,Hailey,5,US,2019-10-09,60,43.52,-114.32,6.0,2.6
504,Praia da Vitoria,40,PT,2019-10-09,68,38.73,-27.07,18.0,4.36
505,Cockburn Town,70,TC,2019-10-09,80,21.46,-71.14,28.53,8.13
506,Arman,100,RU,2019-10-09,84,59.7,150.17,3.7,11.419
507,Vanavara,96,RU,2019-10-09,56,60.35,102.28,-3.75,5.19
508,Guaraniacu,100,BR,2019-10-09,77,-25.1,-52.88,17.91,2.69
509,Miraflores,0,PE,2019-10-09,19,-16.39,-71.52,10.0,1.5
510,Bereda,60,ES,2019-10-09,100,43.27,-7.54,11.11,2.1
511,Veraval,90,FR,2019-10-09,93,49.65,0.71,12.0,5.1
512,Rosamorada,0,MX,2019-10-09,85,22.12,-105.21,28.48,1.38
513,Josanicka Banja,0,RS,2019-10-09,82,43.39,20.75,0.0,3.18
514,Andilamena,100,MG,2019-10-09,84,-17.01,48.57,16.61,5.68
515,Ulaangom,5,MN,2019-10-09,24,49.98,92.07,14.57,0.56
516,Paramonga,75,PE,2019-10-09,93,-10.68,-77.82,14.28,4.69
517,Nouadhibou,0,MR,2019-10-09,57,20.93,-17.03,25.0,5.1
518,Alyangula,19,AU,2019-10-09,41,-13.85,136.42,33.0,2.1
519,Tutoia,9,BR,2019-10-09,82,-2.76,-42.27,22.95,2.54
520,Anadyr,20,RU,2019-10-09,77,64.73,177.51,2.0,4.0
521,Daru,90,PG,2019-10-09,73,-9.07,143.21,26.77,4.18
522,Atbasar,43,KZ,2019-10-09,71,51.81,68.36,10.89,2.761
523,Constitucion,5,MX,2019-10-09,45,23.99,-104.67,17.0,2.6
524,Egvekinot,88,RU,2019-10-09,93,66.32,-179.17,-2.71,4.881
525,Mendi,30,ET,2019-10-09,94,9.8,35.1,16.14,1.922
526,Te Anau,100,NZ,2019-10-09,97,-45.41,167.72,8.4,0.98
527,Middle Island,1,US,2019-10-09,59,40.88,-72.94,16.11,3.6
528,Altamira,84,BR,2019-10-09,94,-3.2,-52.21,23.11,1.45
529,Erzin,0,TR,2019-10-09,77,36.95,36.2,20.0,1.5
530,Quang Ngai,1,VN,2019-10-09,56,15.12,108.8,29.95,1.11
531,Tooele,1,US,2019-10-09,30,40.53,-112.3,16.67,6.7
532,Karpogory,100,RU,2019-10-09,96,64.0,44.44,0.65,6.66
533,Rio Claro,100,BR,2019-10-09,94,-22.41,-47.56,18.54,2.61
534,Khandagayty,2,MN,2019-10-09,52,50.73,92.07,6.8,4.25
535,Mersing,96,MY,2019-10-09,52,2.43,103.84,32.63,0.86
536,Labe,100,NG,2019-10-09,93,7.7,8.47,21.96,1.121
537,Abadan,0,IR,2019-10-09,74,30.36,48.26,28.0,3.1
538,Quatre Cocos,75,MU,2019-10-09,73,-20.21,57.76,23.33,6.2
539,Ponferrada,89,ES,2019-10-09,77,42.55,-6.59,11.11,1.34
540,Ignalina,100,LT,2019-10-09,97,55.34,26.16,5.42,3.42
541,Bosaso,0,SO,2019-10-09,72,11.28,49.18,28.73,5.47
542,Gumdag,0,TM,2019-10-09,53,39.2,54.59,19.39,1.72
543,Hinesville,1,US,2019-10-09,78,31.85,-81.6,24.0,2.6
544,Guadalajara,7,ES,2019-10-09,71,40.63,-3.16,20.0,1.5
545,Menongue,100,AO,2019-10-09,76,-14.66,17.68,16.59,2.3
546,Ruteng,57,ID,2019-10-09,41,-8.61,120.46,29.17,3.497
547,Vardo,75,US,2019-10-09,62,39.62,-77.74,15.0,2.6
548,Kraslava,100,LV,2019-10-09,96,55.9,27.16,3.75,3.53
549,Itaituba,100,BR,2019-10-09,97,-4.26,-55.99,22.87,1.04
550,Najran,40,SA,2019-10-09,38,17.54,44.22,23.0,3.02
551,Lao Cai,83,VN,2019-10-09,70,22.48,103.95,25.4,1.153
552,Katangli,100,RU,2019-10-09,96,51.71,143.23,8.28,6.58
553,Pangody,100,RU,2019-10-09,74,65.85,74.49,1.46,8.06
554,Inuvik,75,CA,2019-10-09,69,68.36,-133.71,1.0,1.5
555,Lisala,100,CD,2019-10-09,98,2.15,21.52,20.59,0.68
556,Junin,0,PE,2019-10-09,19,-16.45,-71.58,10.0,1.5
557,Strelka,0,RU,2019-10-09,62,58.08,93.03,2.71,1.49
558,Raudeberg,75,NO,2019-10-09,66,61.99,5.14,10.0,5.7
559,Magaria,96,NE,2019-10-09,72,13.0,8.91,25.36,3.219
560,Bowen,0,AU,2019-10-09,29,-20.01,148.25,33.0,5.7
561,Penzance,100,GB,2019-10-09,93,50.12,-5.53,12.78,5.7
562,Porto Walter,0,BR,2019-10-09,82,-8.27,-72.74,22.38,1.14
563,Kilcullen,40,IE,2019-10-09,81,53.13,-6.75,9.44,4.6
564,Solnechnyy,6,RU,2019-10-09,50,50.72,136.64,11.01,2.71
565,Yulara,0,AU,2019-10-09,12,-25.24,130.99,30.0,4.1
566,Martinsville,90,US,2019-10-09,82,36.69,-79.87,15.56,1.5
567,Batagay-Alyta,51,RU,2019-10-09,71,67.8,130.41,-9.64,2.796
568,Jumla,0,NP,2019-10-09,63,29.28,82.18,12.6,0.82
569,Santona,75,ES,2019-10-09,93,43.44,-3.46,15.56,2.1
570,Buckeye,1,US,2019-10-09,25,33.37,-112.58,27.78,2.03
571,Midyat,20,TR,2019-10-09,22,37.42,41.36,27.0,4.1
572,Asyut,0,EG,2019-10-09,60,27.18,31.19,23.0,3.1
573,Pochutla,75,MX,2019-10-09,88,15.74,-96.47,25.0,3.051
574,General Pico,95,AR,2019-10-09,31,-35.66,-63.75,13.58,2.35
575,General Cepeda,5,MX,2019-10-09,55,25.38,-101.48,17.0,4.1
576,Coria,0,ES,2019-10-09,84,39.98,-6.54,16.11,1.298
577,Altamont,1,CA,2019-10-09,100,49.4,-98.5,12.0,4.6
578,Grand Gaube,75,MU,2019-10-09,73,-20.01,57.66,23.33,6.2
579,Padang,44,ID,2019-10-09,84,-0.92,100.36,25.7,3.87
580,Kasongo-Lunda,100,CD,2019-10-09,95,-6.48,16.82,18.94,0.324
581,Hajnowka,100,PL,2019-10-09,88,52.74,23.58,10.0,0.45
582,Shumskiy,100,RU,2019-10-09,76,54.83,99.13,1.64,3.859
583,Pierre,1,US,2019-10-09,55,44.37,-100.35,17.22,3.1
584,Mnogovershinnyy,98,RU,2019-10-09,70,53.94,139.92,6.02,3.951
585,Woodward,1,US,2019-10-09,51,36.43,-99.39,18.0,8.7
586,Ngunguru,75,NZ,2019-10-09,74,-35.62,174.5,20.0,4.02
587,Mahajanga,0,MG,2019-10-09,54,-15.72,46.32,26.0,4.6
588,Arlit,37,NE,2019-10-09,43,18.74,7.39,29.54,4.534
589,Emba,0,CY,2019-10-09,82,34.81,32.42,19.0,2.1
590,Carovigno,0,IT,2019-10-09,82,40.71,17.66,16.11,3.1
591,Abu Samrah,100,SY,2019-10-09,60,35.3,37.18,18.68,3.13
592,Mayor Pablo Lagerenza,0,PY,2019-10-09,58,-19.93,-60.77,24.17,1.09
593,Dolores,0,UY,2019-10-09,86,-33.53,-58.22,14.44,1.34
594,Broome,71,GB,2019-10-09,87,52.47,1.45,10.56,2.6
595,Kamenka,7,MD,2019-10-09,82,48.03,28.7,4.44,3.92
596,Sosua,75,DO,2019-10-09,94,19.77,-70.52,27.78,2.1
597,Gualeguay,41,AR,2019-10-09,64,-33.15,-59.31,14.43,1.8
598,The Valley,40,AI,2019-10-09,74,18.22,-63.06,29.0,3.1
599,Maniitsoq,94,GL,2019-10-09,43,65.42,-52.9,2.42,3.787
